[
  { "name": "Chicago Downtown", "lat": 41.8781, "lng": -87.6298, "year": 1920 },
  { "name": "Navy Pier", "lat": 41.8917, "lng": -87.6078, "year": 1916 },
  { "name": "Museum Campus", "lat": 41.8663, "lng": -87.6170, "year": 1893 },
  { "name": "Old Post Office", "lat": 41.8796, "lng": -87.6400, "year": 1921 },
  { "name": "Willis Tower", "lat": 41.8789, "lng": -87.6359, "year": 1973 }
]
